{"type":"FeatureCollection","features":[{"type":"Feature","properties":{"OBJECTID":1,"OFFICE":"Pennino Building","ADDRESS":"12011 Government Center Parkway","CITY":"Fairfax","HS_REGION":4,"DFS_AREA":"Fairfax","CPS_REGION":"Central","PPS_REGION":"Fairfax - East; Fairfax - West"},"geometry":{"type":"Point","coordinates":[-77.36253391443401,38.85526845537048]}},{"type":"Feature","properties":{"OBJECTID":2,"OFFICE":"South County Center","ADDRESS":"8350 Richmond Highway","CITY":"Alexandria","HS_REGION":1,"DFS_AREA":"South County","CPS_REGION":"South","PPS_REGION":"South County"},"geometry":{"type":"Point","coordinates":[-77.10412034576606,38.731504911540334]}},{"type":"Feature","properties":{"OBJECTID":3,"OFFICE":"Cameron Glen","ADDRESS":"1850 Cameron Glen Drive","CITY":"Reston","HS_REGION":0,"DFS_AREA":"North County","CPS_REGION":"North","PPS_REGION":"Reston"},"geometry":{"type":"Point","coordinates":[-77.35875754565646,38.96552650890326]}},{"type":"Feature","properties":{"OBJECTID":4,"OFFICE":"Heritage Center","ADDRESS":"7611 Little River Turnpike","CITY":"Annandale","HS_REGION":2,"DFS_AREA":"Annandale","CPS_REGION":"East","PPS_REGION":"Annandale"},"geometry":{"type":"Point","coordinates":[-77.2090182206314,38.83156354066267]}},{"type":"Feature","properties":{"OBJECTID":5,"OFFICE":"Lake Anne","ADDRESS":"11484 Washington Plaza West","CITY":"Reston","HS_REGION":3,"DFS_AREA":"North County","CPS_REGION":"n/a","PPS_REGION":"n/a"},"geometry":{"type":"Point","coordinates":[-77.34253251508842,38.96853544494488]}}]}